City_ID,City,Lat,Lng,Max Temp,Humidity,Cloudiness,Wind Speed,Country,Date
0,albany,42.6001,-73.9662,64.81,65,10,1.99,US,1684893050
1,port-aux-francais,-49.35,70.2167,45.1,97,98,21.39,TF,1684893133
2,afaahiti,-17.75,-149.2833,80.47,79,78,11.63,PF,1684893172
3,argostolion,38.1811,20.489,63.32,79,52,2.06,GR,1684893723
4,tura,25.5198,90.2201,77.95,78,57,3.96,IN,1684893207
5,puerto natales,-51.7236,-72.4875,29.79,93,72,3.98,CL,1684893136
6,mariehamn,60.0973,19.9348,47.82,100,0,1.14,AX,1684893724
7,porto novo,6.4965,2.6036,82.22,88,100,4.0,BJ,1684893301
8,sitka,57.0531,-135.33,51.69,71,0,10.36,US,1684893175
9,vanino,49.0869,140.2543,68.74,45,70,4.68,RU,1684893726
10,rio grande,-32.035,-52.0986,65.55,91,55,8.99,BR,1684893175
11,aljezur,37.3191,-8.8033,62.91,75,96,3.29,PT,1684893727
12,pangai,-19.8,-174.35,82.51,65,75,2.3,TO,1684893728
13,bredasdorp,-34.5322,20.0403,52.99,91,100,3.47,ZA,1684893137
14,grytviken,-54.2811,-36.5092,35.02,89,20,12.95,GS,1684893728
15,whitehorse,60.7161,-135.0538,65.17,25,75,8.05,CA,1684893050
16,port mathurin,-19.6833,63.4167,76.96,60,1,12.19,MU,1684893234
17,uturoa,-16.7333,-151.4333,80.28,78,77,12.28,PF,1684893209
18,serdar,38.9764,56.2757,83.75,27,0,5.12,TM,1684893731
19,bamboo flat,11.7,92.7167,82.49,89,20,3.44,IN,1684893158
20,margaret river,-33.95,115.0667,58.73,60,99,15.23,AU,1684893138
21,banff,51.1762,-115.5698,60.03,54,71,5.75,CA,1684893732
22,iqaluit,63.7506,-68.5145,19.13,73,75,13.8,CA,1684893157
23,stanley,54.868,-1.6985,48.9,83,0,10.36,GB,1684893138
24,smithers,54.7804,-127.1743,73.72,33,20,5.75,CA,1684893245
25,crane,31.3974,-102.3501,74.34,44,27,17.09,US,1684893247
26,chengde,40.9725,117.9361,77.52,23,99,11.7,CN,1684893737
27,tamanrasset,22.785,5.5228,71.51,23,0,4.61,DZ,1684893737
28,uliastay,47.7417,96.8444,47.89,45,21,8.12,MN,1684893738
29,fortuna,40.5982,-124.1573,55.92,84,75,12.66,US,1684893738
30,dakhla,23.6848,-15.958,65.07,83,100,16.78,EH,1684893739
31,waitangi,-43.9535,-176.5597,56.82,86,71,5.99,NZ,1684893739
32,vadso,70.0744,29.7487,45.48,87,100,10.36,NO,1684893244
33,mount isa,-20.7333,139.5,76.77,31,0,13.8,AU,1684893695
34,nevel'sk,46.6733,141.8633,51.62,63,2,13.04,RU,1684893741
35,tazacorte,28.629,-17.9293,63.57,72,40,5.75,ES,1684893203
36,alice springs,-23.7,133.8833,65.75,32,3,6.91,AU,1684893210
37,remire-montjoly,4.9167,-52.2667,75.24,100,40,0.0,GF,1684893285
38,taoudenni,22.6783,-3.9836,82.38,16,86,9.69,ML,1684893264
39,adamstown,-25.066,-130.1015,76.77,87,83,28.81,PN,1684893159
40,chui,-33.6971,-53.4616,65.07,85,86,7.63,UY,1684893246
41,saipan,15.1355,145.701,83.1,100,75,28.77,MP,1684893235
42,praia da vitoria,38.7333,-27.0667,62.85,77,40,7.74,PT,1684893160
43,dalnerechensk,45.9339,133.7225,70.09,53,9,13.78,RU,1684893744
44,arica,-18.475,-70.3042,64.63,77,0,3.44,CL,1684893647
45,bethel,41.3712,-73.414,55.56,76,12,3.31,US,1684893745
46,bakanas,44.8081,76.2772,67.19,30,10,8.21,KZ,1684893745
47,belyy yar,53.6039,91.3903,60.69,36,0,15.66,RU,1684893266
48,nikolayevsk-on-amure,53.1406,140.73,55.9,60,99,4.27,RU,1684893746
49,ca mau,9.1769,105.15,89.85,56,50,8.57,VN,1684893746
50,kingston,17.997,-76.7936,81.55,84,40,3.44,JM,1684893012
51,camara de lobos,32.6333,-16.9667,66.83,85,40,6.91,PT,1684893747
52,dwarka,22.2394,68.9678,83.3,81,0,18.32,IN,1684893747
53,kodiak,57.79,-152.4072,42.46,98,100,10.2,US,1684893748
54,tazovsky,67.4667,78.7,35.17,78,100,5.97,RU,1684893178
55,huarmey,-10.0681,-78.1522,71.65,84,56,8.7,PE,1684893748
56,pechora,65.1472,57.2244,54.37,75,16,3.13,RU,1684893749
57,nova sintra,14.8667,-24.7167,68.65,81,78,11.45,CV,1684893176
58,vinga,46.0167,21.2,61.92,82,0,9.22,RO,1684893750
59,edinburgh of the seven seas,-37.0676,-12.3116,56.01,62,95,24.79,SH,1684893751
60,badger,64.8,-147.5333,69.39,29,0,3.44,US,1684893177
61,taulaga,-11.0553,-171.0883,82.13,68,83,6.49,AS,1684893753
62,keflavik,64.0049,-22.5624,42.71,65,75,40.29,IS,1684893282
63,tiksi,71.6872,128.8694,25.92,81,16,3.91,RU,1684893204
64,ukiah,39.1502,-123.2078,78.69,39,0,3.0,US,1684893601
65,hadibu,12.65,54.0333,84.13,72,57,4.34,YE,1684893176
66,jamestown,42.097,-79.2353,62.24,77,0,1.01,US,1684893726
67,broome,42.2506,-75.833,63.37,80,2,4.25,US,1684893755
68,petropavlovsk-kamchatsky,53.0452,158.6483,50.59,43,75,6.71,RU,1684893755
69,kyakhta,50.3508,106.4494,58.96,34,5,7.7,RU,1684893756
70,ushuaia,-54.8,-68.3,38.86,93,100,21.85,AR,1684893756
71,hawaiian paradise park,19.5933,-154.9731,80.73,77,26,1.01,US,1684893757
72,santa vitoria,-18.8386,-50.1214,64.58,61,0,5.97,BR,1684893757
73,nar'yan-mar,67.6713,53.087,59.31,61,14,7.92,RU,1684893174
74,el calafate,-50.3408,-72.2768,31.66,80,99,5.39,AR,1684893256
75,tenno,39.9,139.9667,61.81,65,32,17.49,JP,1684893758
76,blackmans bay,-43.0167,147.3167,64.72,58,100,8.19,AU,1684893759
77,lebu,-37.6167,-73.65,54.81,75,68,22.95,CL,1684893759
78,ponta delgada,37.7333,-25.6667,61.52,77,20,8.05,PT,1684893614
79,sulak,43.2734,47.5146,62.4,85,10,8.68,RU,1684893760
80,tayoltita,24.0833,-105.9333,72.39,43,92,3.62,MX,1684893760
81,utrik,11.2278,169.8474,82.54,77,100,17.0,MH,1684893760
82,vanimo,-2.6741,141.3028,85.55,67,100,3.58,PG,1684893760
83,yeniseysk,58.4497,92.1703,42.06,54,94,13.02,RU,1684893761
84,la mira,18.035,-102.3266,81.3,76,4,5.82,MX,1684893761
85,vernon,50.2581,-119.2691,61.61,66,100,3.0,CA,1684893642
86,quesnel,52.9999,-122.5029,50.5,93,100,6.91,CA,1684893630
87,ulanhot,46.0833,122.0833,84.15,12,74,15.26,CN,1684893762
88,newman,37.3138,-121.0208,78.78,39,0,13.0,US,1684893200
89,avarua,-21.2078,-159.775,77.05,65,40,4.61,CK,1684893762
90,bilibino,68.0546,166.4372,51.3,42,94,4.43,RU,1684893762
91,san luis de la loma,17.2706,-100.8939,82.71,71,51,5.84,MX,1684893763
92,yaren,-0.5472,166.916,78.17,82,100,4.36,NR,1684893763
93,east london,-33.0153,27.9116,60.04,49,3,5.35,ZA,1684893228
94,sihanoukville,10.6093,103.5296,87.75,79,40,4.61,KH,1684893763
95,nuuk,64.1835,-51.7216,30.81,74,100,24.16,GL,1684893203
96,america dourada,-11.4553,-41.4361,69.91,78,98,10.29,BR,1684893703
97,karachi,24.9056,67.0822,84.02,84,40,13.8,PK,1684893496
98,port lincoln,-34.7333,135.8667,63.72,49,100,20.27,AU,1684893245
99,puerto ayora,-0.7393,-90.3518,78.55,92,100,1.99,EC,1684893157
100,atafu village,-8.5421,-172.5159,82.85,73,89,6.67,TK,1684893764
101,hamilton,39.1834,-84.5333,73.4,65,40,0.0,US,1684893001
102,chonchi,-42.6128,-73.8092,47.41,97,100,8.61,CL,1684893202
103,longyearbyen,78.2186,15.6401,35.44,75,75,1.14,SJ,1684893680
104,anadyr,64.75,177.4833,43.3,65,40,6.71,RU,1684893173
105,geraldton,-28.7667,114.6,66.61,82,100,8.05,AU,1684893240
106,boende,-0.2167,20.8667,70.93,98,76,0.81,CD,1684893764
107,nemuro,43.3236,145.575,40.84,83,100,16.73,JP,1684893180
108,barra dos coqueiros,-10.9089,-37.0386,80.62,78,20,9.22,BR,1684893765
109,san patricio,28.017,-97.5169,82.35,73,22,9.93,US,1684893232
110,qaqortoq,60.7167,-46.0333,31.26,78,100,1.63,GL,1684893765
111,oytal,42.9057,73.2697,57.99,71,100,6.64,KZ,1684893765
112,yellowknife,62.456,-114.3525,63.12,27,75,13.8,CA,1684893172
113,papatowai,-46.5619,169.4708,52.32,57,40,9.19,NZ,1684893765
114,talnakh,69.4865,88.3972,33.21,90,55,10.87,RU,1684893765
115,heroica ciudad de tlaxiaco,17.2667,-97.6833,64.13,83,85,2.77,MX,1684893766
116,kendari,-3.945,122.4989,85.77,65,66,0.78,ID,1684893766
117,malabar,-33.9667,151.25,66.63,49,0,8.05,AU,1684893766
118,olonkinbyen,70.9221,-8.7187,33.12,94,100,29.86,SJ,1684893179
119,harper,4.375,-7.7169,80.46,84,44,5.3,LR,1684893288
120,novomykolayivka,47.9781,35.9102,56.77,92,10,4.14,UA,1684893767
121,punta arenas,-53.15,-70.9167,32.11,93,0,11.5,CL,1684893267
122,st. john's,47.5649,-52.7093,35.78,95,75,15.01,CA,1684893122
123,mana,5.6592,-53.7767,78.21,92,100,6.49,GF,1684893767
124,moranbah,-22.0016,148.0466,74.71,44,0,17.78,AU,1684893767
125,urangan,-25.3,152.9,73.2,66,0,11.05,AU,1684893767
126,krasnoarmeysk,51.0239,45.6969,58.3,94,86,4.63,RU,1684893767
127,kununurra,-15.7667,128.7333,78.78,29,4,9.22,AU,1684893243
128,margate,51.3813,1.3862,49.69,82,100,1.03,GB,1684893767
129,maputo,-25.9653,32.5892,63.23,84,86,8.61,MZ,1684893767
130,coquimbo,-29.9533,-71.3436,56.93,100,75,2.3,CL,1684893234
131,fale old settlement,-9.3852,-171.2468,82.85,72,85,6.4,TK,1684893181
132,labrador city,52.9463,-66.9114,46.31,81,100,17.27,CA,1684893768
133,parfino,57.9731,31.6481,52.2,82,100,1.25,RU,1684893768
134,leava,-14.3,-178.1667,81.43,80,100,14.12,WF,1684893768
135,kinkala,-4.3614,14.7644,71.37,96,74,1.86,CG,1684893768
136,zaragoza,41.6561,-0.8773,61.02,84,40,2.3,ES,1684893493
137,la passe,45.5549,-0.8967,59.23,80,1,16.11,FR,1684893769
138,xingcheng,40.6167,120.7167,71.94,44,100,13.53,CN,1684893769
139,vorgashor,67.5833,63.95,48.4,61,17,7.11,RU,1684893173
140,ilha de mocambique,-15.0342,40.7358,77.29,75,55,13.78,MZ,1684893769
141,egilsstadir,65.2653,-14.3948,42.71,52,75,29.93,IS,1684893218
142,augusta,48.3667,10.8833,54.7,87,100,6.91,DE,1684893769
143,languidic,47.8327,-3.1582,55.44,65,100,13.38,FR,1684893770
144,ryotsu-minato,38.0833,138.4333,59.92,60,30,10.4,JP,1684893770
145,sao joao da barra,-21.6403,-41.0511,72.39,82,55,6.96,BR,1684893296
146,wailua homesteads,22.0669,-159.378,81.03,78,27,5.99,US,1684893770
147,thompson,55.7435,-97.8558,53.76,40,75,4.61,CA,1684892904
148,tatahuicapan,18.2333,-94.75,78.03,82,97,9.42,MX,1684893770
149,zeya,53.75,127.2667,57.78,64,82,5.35,RU,1684893175
150,konarka,19.9,86.1167,84.6,78,22,19.57,IN,1684893771
151,calvinia,-31.4707,19.776,53.49,33,100,5.03,ZA,1684893771
152,okakarara,-20.5833,17.4333,55.76,38,0,1.52,NA,1684893771
153,antofagasta,-23.65,-70.4,60.08,89,50,5.28,CL,1684893771
154,san sebastian de la gomera,28.0916,-17.1133,68.38,63,0,3.44,ES,1684893772
155,swan hill,-35.3378,143.5544,64.29,38,1,11.74,AU,1684893649
156,yanykurgan,43.915,67.2481,71.78,23,0,10.49,KZ,1684893772
157,ta`u,-14.2336,-169.5144,80.76,81,58,10.87,AS,1684893304
158,al bayda,32.7627,21.7551,54.66,90,20,10.16,LY,1684893772
159,oranjemund,-28.55,16.4333,53.35,74,100,1.39,NA,1684893772
160,santa ana de yacuma,-13.75,-65.4333,77.38,83,100,1.99,BO,1684893772
161,college,64.8569,-147.8028,70.59,31,0,3.44,US,1684893601
162,tayaman,13.2295,120.5726,86.45,69,55,5.21,PH,1684893773
163,kutum,14.2,24.6667,77.25,14,5,3.09,SD,1684893287
164,ilulissat,69.2167,-51.1,24.82,80,100,11.5,GL,1684893773
165,invercargill,-46.4,168.35,50.99,63,56,9.08,NZ,1684893773
166,howrah,22.5892,88.3103,77.0,88,40,6.91,IN,1684893773
167,dudinka,69.4058,86.1778,33.62,88,89,7.52,RU,1684893773
168,lazaro cardenas,17.9583,-102.2,81.99,74,3,6.26,MX,1684892934
169,pedra branca,-5.4542,-39.7172,73.08,79,94,2.3,BR,1684893774
170,aasiaat,68.7098,-52.8699,27.03,91,100,16.78,GL,1684893183
171,cobija,-11.0267,-68.7692,73.62,97,100,0.85,BO,1684893240
172,ust-nera,64.5667,143.2,37.54,97,100,7.05,RU,1684893174
173,brasilia de minas,-16.2064,-44.4333,66.85,63,100,10.22,BR,1684893618
174,nacala,-14.5428,40.6728,67.73,96,37,6.67,MZ,1684893774
175,puerto ayacucho,5.6639,-67.6236,77.32,91,97,0.92,VE,1684893774
176,revda,56.801,59.9303,62.22,50,11,1.9,RU,1684893243
177,kapuskasing,49.4169,-82.4331,42.89,87,75,4.61,CA,1684893214
178,port macquarie,-31.4333,152.9167,69.89,50,33,6.96,AU,1684893197
179,kodinsk,58.6881,99.1844,37.9,95,100,10.98,RU,1684893775
180,yamada,39.4667,141.95,55.38,65,94,11.34,JP,1684893775
181,fort mcmurray,56.7268,-111.381,51.39,71,100,20.71,CA,1684893775
182,luis correia,-2.8792,-41.6669,77.97,89,13,7.0,BR,1684893775
183,port saint john's,-31.6229,29.5448,60.4,59,9,6.11,ZA,1684893229
184,itaituba,-4.2761,-55.9836,76.75,95,100,2.15,BR,1684893543
185,kamalia,30.7333,72.65,88.12,38,11,4.23,PK,1684893776
186,port alfred,-33.5906,26.891,60.03,59,9,4.34,ZA,1684893776
187,cockburn town,21.4612,-71.1419,80.96,76,0,3.53,TC,1684893493
188,georgetown,5.4112,100.3354,85.95,70,20,4.61,MY,1684893066
189,ghormach,35.7306,63.7826,77.27,27,3,6.62,AF,1684893776
190,lihue,21.9789,-159.3672,81.64,78,100,14.97,US,1684893227
191,mzimba,-11.9,33.6,62.04,86,3,10.58,MW,1684893777
192,klyuchi,52.2667,79.1667,62.71,37,0,10.2,RU,1684893777
193,port antonio,18.18,-76.4612,82.31,82,44,4.59,JM,1684893777
194,mwingi,-0.9344,38.0601,64.18,89,79,4.63,KE,1684893777
195,isafjordur,66.0755,-23.124,36.54,93,94,16.4,IS,1684893777
196,arroyo,41.6096,-4.7969,56.1,84,0,10.36,ES,1684893777
197,bubaque,11.2833,-15.8333,81.41,73,100,11.43,GW,1684893230
198,sao tome,0.3365,6.7273,78.28,83,82,3.76,ST,1684893778
199,santiago de cao,-7.9589,-79.2392,73.53,88,100,10.36,PE,1684893778
200,west island,-12.1568,96.8225,84.18,74,9,3.44,CC,1684893778
201,calca,-13.3333,-71.95,54.75,86,100,4.32,PE,1684893778
202,altdorf,49.3875,11.3572,48.79,78,83,5.17,DE,1684893778
203,kill devil hills,36.0307,-75.676,62.98,90,100,18.41,US,1684893779
204,ghazni,33.5536,68.4269,60.04,52,5,5.3,AF,1684893779
205,kattivakkam,13.2167,80.3167,86.09,82,2,15.37,IN,1684893779
206,san antonio de pale,-1.4014,5.6325,79.23,81,12,6.62,GQ,1684893198
207,sinop,41.7711,34.8709,52.63,94,100,2.15,TR,1684893245
208,okha,53.5739,142.9478,41.31,75,100,17.83,RU,1684893779
209,tolanaro,-25.0319,46.9987,60.87,94,20,4.61,MG,1684893779
210,weining,26.85,104.2333,67.32,62,60,9.06,CN,1684893780
211,sakaiminato,35.55,133.2333,66.18,59,40,9.22,JP,1684893780
212,karratha,-20.7377,116.8463,74.93,24,1,8.14,AU,1684893266
213,nadi,-17.8,177.4167,82.4,69,75,11.5,FJ,1684893589
214,kapa'a,22.0752,-159.319,82.38,78,100,14.97,US,1684893221
215,burela de cabo,43.65,-7.4,57.38,94,53,11.9,ES,1684893780
216,point pedro,9.8167,80.2333,85.3,74,34,16.15,LK,1684893781
217,weno,7.4515,151.8468,85.95,84,100,0.0,FM,1684893781
218,korla,41.7597,86.1469,66.67,27,99,3.76,CN,1684893781
219,enewetak,11.3474,162.3373,83.39,70,100,12.75,MH,1684893229
220,ishigaki,24.3448,124.1572,78.93,65,20,6.91,JP,1684893782
221,mahina,-17.5065,-149.489,82.17,69,75,13.8,PF,1684893783
222,kavieng,-2.5744,150.7967,81.75,80,99,8.88,PG,1684893783
223,anar darah,32.7587,61.654,78.46,24,0,7.72,AF,1684893784
224,zambezi,-13.5432,23.1047,57.52,56,10,4.94,ZM,1684893784
225,mili,6.0815,171.735,81.66,79,81,10.63,MH,1684893209
226,las vegas,36.175,-115.1372,95.27,13,20,20.71,US,1684893535
227,arraial do cabo,-22.9661,-42.0278,72.54,82,12,16.31,BR,1684893785
228,nogliki,51.8333,143.1667,40.75,84,100,9.22,RU,1684893786
229,grande prairie,55.1667,-118.8027,44.78,93,100,9.22,CA,1684893693
230,port blair,11.6667,92.75,82.44,89,20,3.44,IN,1684893788
231,banda aceh,5.5577,95.3222,84.92,73,88,5.23,ID,1684893789
232,niagara falls,43.1001,-79.0663,68.68,73,75,6.91,CA,1684893525
233,severo-yeniseyskiy,60.3725,93.0408,34.23,75,99,12.88,RU,1684893789
234,ust-tsilma,65.441,52.1498,57.4,72,0,4.0,RU,1684893790
235,kandyagash,49.4744,57.4233,61.59,50,5,10.49,KZ,1684893791
236,puerto armuelles,8.2833,-82.8667,82.17,84,100,4.23,PA,1684893791
237,booue,-0.0921,11.9385,73.47,98,70,1.1,GA,1684893792
238,howard springs,-12.497,131.047,82.81,49,28,9.31,AU,1684893793
239,gueret,46.1667,1.8667,53.11,80,100,7.49,FR,1684893794
240,collie,-33.3667,116.15,56.91,58,40,8.46,AU,1684893794
241,iskateley,67.6803,53.1512,59.16,61,19,7.87,RU,1684893795
242,illela,13.7292,5.2975,90.82,38,67,7.96,NG,1684893795
243,ushtobe,45.2514,77.9838,65.14,35,0,9.35,KZ,1684893795
244,shimoda,34.6667,138.95,68.36,61,11,8.05,JP,1684893255
245,palangkaraya,-2.2,113.8333,86.45,65,89,1.01,ID,1684893796
246,araguari,-18.6472,-48.1872,64.69,68,0,5.44,BR,1684893796
247,rongelap,11.1635,166.8941,82.96,73,100,16.24,MH,1684893285
248,colonia,50.9333,6.95,46.94,80,0,2.3,DE,1684893103
249,zheleznodorozhnyy,55.7503,38.0042,59.18,97,100,3.56,RU,1684893797
250,nishifukuma,33.7667,130.4667,73.4,48,70,10.42,JP,1684893797
251,ribeira grande,38.5167,-28.7,62.78,82,92,8.01,PT,1684893771
252,vilyuchinsk,52.9306,158.4028,52.07,91,93,5.86,RU,1684893275
253,mossendjo,-2.9506,12.7261,70.07,99,90,2.55,CG,1684893799
254,port elizabeth,-33.918,25.5701,52.32,75,0,5.75,ZA,1684893241
255,lydenburg,-25.0978,30.4597,47.3,87,2,0.72,ZA,1684893800
256,batken,39.8333,71.0,51.84,55,32,1.39,KG,1684893603
257,mweka,-4.85,21.5667,67.62,97,49,0.43,CD,1684893802
258,haiku-pauwela,20.9219,-156.3051,82.17,60,31,15.99,US,1684893804
259,cabo san lucas,22.8909,-109.9124,91.71,14,40,11.5,MX,1684892972
260,ulladulla,-35.35,150.4667,61.77,38,0,1.16,AU,1684893275
261,rikaze,29.25,88.8833,52.34,37,57,2.82,CN,1684893804
262,chifeng,42.2683,118.9636,77.13,17,100,18.68,CN,1684893625
263,kamyzyak,46.11,48.0736,60.78,94,89,4.47,RU,1684893805
264,bechar,31.6167,-2.2167,64.72,45,20,10.36,DZ,1684893806
265,cabedelo,-6.9811,-34.8339,77.67,84,31,12.1,BR,1684893286
266,nadym,65.5333,72.5167,42.76,53,16,6.4,RU,1684893256
267,skagen,57.7209,10.5839,54.81,88,87,7.0,DK,1684893806
268,popondetta,-8.7537,148.2534,87.91,56,100,2.64,PG,1684893807
269,seme,15.1942,-12.9448,88.56,21,95,10.33,SN,1684893807
270,ar rutbah,33.0381,40.2848,71.8,44,36,9.82,IQ,1684893808
271,khorinsk,52.1657,109.7726,58.15,35,31,11.45,RU,1684893808
272,asaita,11.5636,41.4394,85.15,62,4,5.1,ET,1684893809
273,udachny,66.4167,112.4,37.33,72,93,12.84,RU,1684893285
274,fortaleza,-3.7227,-38.5247,82.53,83,40,9.22,BR,1684893600
275,castillos,-34.1667,-53.8333,67.77,78,100,8.21,UY,1684893811
276,hasaki,35.7333,140.8333,70.29,45,0,12.77,JP,1684893795
277,carnarvon,-24.8667,113.6333,71.15,58,100,4.61,AU,1684892944
278,las khorey,11.1595,48.1967,85.33,75,96,5.08,SO,1684893812
279,walvis bay,-22.9575,14.5053,52.75,100,2,4.61,NA,1684893813
280,choele choel,-39.2667,-65.6833,55.26,29,100,6.91,AR,1684893813
281,san francisco de la paz,14.9,-86.2,91.11,59,71,3.78,HN,1684893814
282,kilindoni,-7.9139,39.6668,79.7,74,86,10.78,TZ,1684893814
283,nakamura,32.9833,132.9333,70.16,45,3,5.61,JP,1684893814
284,lata,40.1629,-8.3327,62.08,80,23,3.98,PT,1684893231
285,kachug,53.9606,105.8817,49.23,72,100,12.55,RU,1684893267
286,codrington,-38.2667,141.9667,60.62,59,11,18.77,AU,1684893236
287,taro,-8.3862,115.28,75.2,59,39,2.19,ID,1684893816
288,port douglas,-16.4833,145.4667,73.87,78,72,19.15,AU,1684893817
289,alofi,-19.0595,-169.9187,80.49,65,75,5.75,NU,1684893817
290,eastham,41.8301,-69.9739,48.22,81,0,3.44,US,1684893818
291,vapnyarka,48.5348,28.7436,57.15,83,100,4.07,UA,1684893818
292,tashtagol,52.7657,87.8894,57.15,52,81,3.8,RU,1684893819
293,norilsk,69.3535,88.2027,33.42,89,74,9.93,RU,1684893819
294,thunder bay,48.4001,-89.3168,51.78,81,100,8.05,CA,1684893188
295,island harbour,50.724,-1.2758,51.93,88,96,3.42,GB,1684893820
296,ancud,-41.8697,-73.8203,49.23,84,100,37.38,CL,1684893636
297,batie,9.8833,-2.9167,80.47,68,94,3.85,BF,1684893820
298,ozalp,38.6548,43.993,46.15,72,76,4.38,TR,1684893820
299,namibe,-15.1961,12.1522,70.54,71,2,7.02,AO,1684893821
300,oyem,1.5995,11.5793,68.2,99,93,1.41,GA,1684893821
301,tralee,52.2704,-9.7026,47.88,96,77,2.33,IE,1684893822
302,highland springs,37.546,-77.3278,64.38,67,100,4.61,US,1684893822
303,acapulco de juarez,16.8634,-99.8901,82.06,73,12,3.36,MX,1684893626
304,buka,40.8108,69.1986,69.33,46,4,2.48,UZ,1684893822
305,catalao,-18.1658,-47.9464,58.46,66,0,4.79,BR,1684893550
306,wesley,15.5667,-61.3167,78.87,83,23,9.08,DM,1684893822
307,mo i rana,66.3128,14.1428,37.33,92,83,1.01,NO,1684893685
308,quellon,-43.1167,-73.6167,50.25,87,100,27.63,CL,1684893257
309,hotan,37.0997,79.9269,74.03,24,100,6.62,CN,1684893823
310,agri,39.6667,43.1667,50.31,61,67,4.81,TR,1684893823
311,kourou,5.1552,-52.6478,75.25,93,100,5.26,GF,1684893823
312,luderitz,-26.6481,15.1594,57.67,63,10,4.83,NA,1684893244
313,inhambane,-23.865,35.3833,67.96,80,22,6.2,MZ,1684893824
314,murzuq,25.9155,13.9184,80.55,15,62,6.93,LY,1684893824
315,vangaindrano,-23.35,47.6,63.97,83,72,6.53,MG,1684893824
316,tsiombe,-25.3,45.4833,60.58,72,5,1.7,MG,1684893824
317,igarka,67.4667,86.5833,34.79,72,87,20.92,RU,1684893283
318,khandyga,62.6667,135.6,51.22,35,90,1.7,RU,1684893824
319,dapa,9.7594,126.0531,84.18,72,100,5.19,PH,1684893825
320,pacific grove,36.6177,-121.9166,59.02,83,40,13.8,US,1684893534
321,sonoita,31.85,-112.8333,83.86,20,0,12.01,MX,1684893825
322,jajpur,20.85,86.3333,89.92,61,9,11.88,IN,1684893825
323,general roca,-39.0333,-67.5833,48.61,41,0,4.36,AR,1684893826
324,saldanha,-33.0117,17.9442,46.45,83,100,7.34,ZA,1684893826
325,ola,59.5833,151.2833,43.14,92,100,7.0,RU,1684893826
326,greenville,35.6127,-77.3663,64.56,81,0,10.36,US,1684893826
327,tete,-16.1564,33.5867,65.44,98,7,2.84,MZ,1684893826
328,cadale,2.7603,46.3222,80.31,83,100,12.17,SO,1684893826
329,hilo,19.7297,-155.09,80.33,69,75,6.91,US,1684893245
330,palmas,-10.2128,-48.3603,75.07,83,0,5.75,BR,1684893826
331,novyy urengoy,66.0833,76.6333,37.11,72,24,4.61,RU,1684893827
332,mumford,5.2618,-0.759,80.4,86,98,5.41,GH,1684893827
333,santo domingo de los colorados,-0.25,-79.15,71.85,97,100,1.72,EC,1684893827
334,bako,5.7833,36.5667,62.87,86,85,4.88,ET,1684893827
335,hanceville,34.0607,-86.7675,66.11,73,99,5.14,US,1684893827
336,mar'yinka,47.9453,37.5054,58.14,96,67,5.95,UA,1684893827
337,gazli,40.1333,63.45,76.24,18,3,17.0,UZ,1684893828
338,riachao do jacuipe,-11.8069,-39.3856,70.07,92,41,4.7,BR,1684893828
339,mumbwa,-14.9783,27.0619,59.32,72,3,3.65,ZM,1684893828
340,malango,-2.9627,119.9001,78.87,71,54,3.0,ID,1684893828
341,wewak,-3.5534,143.6268,83.55,73,100,5.86,PG,1684893828
342,salbris,47.4242,2.0512,51.51,86,16,9.98,FR,1684893828
343,palmer,42.1584,-72.3287,58.82,71,20,4.41,US,1684893758
344,zouerate,22.7187,-12.4521,72.68,31,100,6.87,MR,1684893829
345,kansk,56.2017,95.7175,46.62,55,49,18.41,RU,1684893829
346,agnibilekrou,7.1344,-3.2047,73.96,98,100,2.24,CI,1684893829
347,chibougamau,49.9168,-74.3659,46.02,87,100,12.66,CA,1684893257
348,holualoa,19.6228,-155.9522,78.55,78,100,8.05,US,1684893245
349,illizi,26.4833,8.4667,76.8,16,98,3.8,DZ,1684893830
350,sinabang,2.4803,96.3801,79.97,84,100,3.76,ID,1684893233
351,cozumel,20.5083,-86.9458,84.94,83,21,8.01,MX,1684893609
352,tres barras,-26.1064,-50.3222,55.15,93,0,1.99,BR,1684893830
353,sault ste. marie,46.5168,-84.3333,64.69,68,100,9.22,CA,1684893570
354,santa cruz,-17.8,-63.1667,71.06,94,40,4.61,BO,1684893606
355,queenstown,-31.8976,26.8753,47.1,48,12,5.86,ZA,1684893830
356,mont-dore,-22.2833,166.5833,71.58,62,100,13.51,NC,1684893610
357,zhaotong,27.3167,103.7167,67.57,65,98,6.46,CN,1684893242
358,putina,-15.4667,-69.4333,42.85,80,47,7.9,PE,1684893830
359,hibaiyo,10.2726,123.321,87.48,66,21,3.56,PH,1684893831
360,iskushuban,10.2837,50.23,80.64,72,96,8.25,SO,1684893831
361,labasa,-16.4167,179.3833,83.3,64,90,5.37,FJ,1684893831
362,vallegrande,-18.4897,-64.1069,56.23,96,65,5.37,BO,1684893831
363,nagqu,31.5,92.0,41.4,46,100,7.74,CN,1684893831
364,balykshi,47.0667,51.8667,71.6,26,0,22.37,KZ,1684893831
365,papao,-17.75,-149.55,82.08,80,98,10.27,PF,1684893831
366,kolonia town,6.964,158.206,89.6,66,75,4.61,FM,1684893832
367,polyarnyy,69.1989,33.4478,49.75,80,72,6.13,RU,1684893832
368,wagar,16.1525,36.2032,82.89,61,0,10.09,SD,1684893286
369,micheweni,-4.9667,39.8333,77.4,85,32,8.34,TZ,1684893832
370,calama,-22.4667,-68.9333,46.89,23,0,5.75,CL,1684893832
371,kerema,-7.9631,145.7785,80.38,77,100,3.62,PG,1684893832
372,rajpura,30.4831,76.595,89.31,32,100,11.77,IN,1684893832
373,miles city,46.4083,-105.8406,74.37,53,0,11.5,US,1684893833
374,cherryville,53.1569,-6.9667,50.86,89,15,4.41,IE,1684893833
375,new norfolk,-42.7826,147.0587,64.92,55,100,8.99,AU,1684893267
376,yima,34.7381,111.8839,66.2,54,0,7.47,CN,1684893833
377,san jose,37.3394,-121.895,69.89,60,40,20.0,US,1684893470
378,belabo,4.9333,13.3,68.92,99,99,0.98,CM,1684893833
379,cumra,37.5732,32.7745,48.34,75,6,5.06,TR,1684893833
380,balabac,7.9868,117.0645,85.87,67,100,6.13,PH,1684893834
381,atamyrat,37.8357,65.2106,80.42,25,0,11.81,TM,1684893834
382,northam,51.0333,-4.2167,51.39,86,47,3.36,GB,1684893834
383,pisco,-13.7,-76.2167,69.85,83,0,16.11,PE,1684893834
384,touros,-5.1989,-35.4608,79.14,81,41,11.68,BR,1684893834
385,okondja,-0.6549,13.6753,72.66,97,96,0.85,GA,1684893834
386,noshiro,40.2039,140.0242,58.03,62,64,16.58,JP,1684893835
387,auki,-8.7676,160.7034,82.36,81,40,3.27,SB,1684893840
388,gorgan,36.8387,54.4348,64.36,94,0,9.22,IR,1684893840
389,cannonvale,-20.2833,148.7,70.99,61,73,19.06,AU,1684893303
390,umm kaddadah,13.6017,26.6876,82.62,11,0,9.04,SD,1684893840
391,kuqa,41.7278,82.9364,68.68,22,100,18.79,CN,1684893644
392,pingliang,35.5392,106.6861,64.09,54,9,7.76,CN,1684893841
393,enriquillo,17.9,-71.2333,78.71,83,7,1.19,DO,1684893841
394,belmonte,-15.8631,-38.8828,74.01,79,100,5.95,BR,1684893841
395,bangassou,4.7413,22.8184,72.19,82,100,2.01,CF,1684893630
396,port augusta,-32.5,137.7667,67.12,36,39,17.47,AU,1684893842
397,gondar,12.6,37.4667,65.59,22,40,3.87,ET,1684893843
398,mandal,25.45,74.5667,85.41,49,30,12.12,IN,1684893843
399,altai,46.3722,96.2583,41.25,60,73,12.8,MN,1684893283
400,fort st. john,56.2499,-120.8529,44.49,81,100,2.3,CA,1684893661
401,gamay,12.3854,125.2979,89.64,57,51,2.82,PH,1684893845
402,sisimiut,66.9395,-53.6735,28.94,75,100,16.64,GL,1684893845
403,salinas,36.6777,-121.6555,59.99,75,40,12.66,US,1684893845
404,prince rupert,54.3161,-130.3201,53.69,77,0,19.57,CA,1684893755
405,payyannur,12.1,75.2,81.81,80,100,2.75,IN,1684893846
406,poltavka,54.3663,71.7632,64.38,43,3,5.66,RU,1684893847
407,charters towers,-20.1,146.2667,76.84,39,4,16.13,AU,1684893247
408,xiongzhou,25.1167,114.3,75.33,88,87,2.46,CN,1684893847
409,piti village,13.4626,144.6933,80.65,93,100,83.06,GU,1684893847
410,basco,20.4487,121.9702,80.38,78,76,10.71,PH,1684893848
411,bella vista,36.4295,-94.2316,72.52,75,0,5.75,US,1684893608
412,altamira,-3.2033,-52.2064,74.17,93,52,0.43,BR,1684893848
413,hermanus,-34.4187,19.2345,49.8,71,100,3.4,ZA,1684893849
414,el granada,37.5027,-122.4694,67.82,74,40,13.8,US,1684893295
415,boise,43.6135,-116.2035,72.14,47,0,11.5,US,1684893797
416,grand baie,-20.0182,57.5802,72.07,83,18,3.0,MU,1684893854
417,buncrana,55.1333,-7.45,47.5,95,60,6.91,IE,1684893855
418,alik ghund,30.4896,67.5226,64.06,37,99,2.24,PK,1684893855
419,fort bragg,35.139,-79.006,68.83,41,100,11.5,US,1684893855
420,isla mujeres,21.2311,-86.731,80.65,73,0,7.78,MX,1684893856
421,qaisumah,28.3112,46.1273,82.36,34,20,9.22,SA,1684893856
422,pangody,65.85,74.4859,40.06,59,46,2.1,RU,1684893856
423,russkaya polyana,49.417,31.9201,54.95,91,81,3.44,UA,1684893856
424,nieuw amsterdam,5.8833,-55.0833,80.02,89,100,7.34,SR,1684893857
425,novo aripuana,-5.1206,-60.3797,74.68,98,100,2.48,BR,1684893857
426,nizhnyaya tura,58.6293,59.8118,64.38,54,53,2.75,RU,1684893857
427,tbeng meanchey,13.8167,104.9667,90.3,53,100,3.2,KH,1684893858
428,sarangani,5.4033,125.4636,83.43,76,71,13.24,PH,1684893858
429,dolinsk,47.35,142.8,60.04,50,2,10.02,RU,1684893295
430,fada,9.5667,8.3,71.83,86,21,1.36,NG,1684893868
431,fort-shevchenko,44.5086,50.263,71.53,62,7,8.52,KZ,1684893868
432,toktogul,41.8708,72.9402,57.11,94,100,3.0,KG,1684893869
433,livingston,55.9029,-3.5226,48.85,87,0,10.36,GB,1684893869
434,broken hill,-31.95,141.4333,65.32,27,4,12.17,AU,1684893869
435,benghazi,32.1167,20.0667,67.08,69,100,9.04,LY,1684893870
436,wynyard,-41.0,145.7167,56.98,95,100,14.97,AU,1684893870
437,aksu,41.1231,80.2644,69.66,36,100,1.86,CN,1684893870
438,merizo village,13.2658,144.6691,81.16,93,100,78.83,GU,1684893871
439,pembroke,45.8168,-77.1162,67.98,68,95,6.13,CA,1684893871
440,ashkasham,36.6833,71.5333,41.43,86,90,2.59,AF,1684893872
441,moyale,3.5167,39.0584,64.63,92,73,3.13,KE,1684893872
442,quadrivio,45.0297,9.2223,64.85,76,67,2.42,IT,1684893873
443,vila velha,-20.3297,-40.2925,69.75,98,75,4.61,BR,1684893873
444,kristiansund,63.1115,7.732,47.05,81,100,3.44,NO,1684893873
445,myitkyina,25.3833,97.4,92.53,35,100,0.31,MM,1684893873
446,masuguru,-11.3667,38.4167,69.64,88,69,3.22,TZ,1684893874
447,krasnokamensk,50.0979,118.0369,65.35,27,99,10.83,RU,1684893874
448,beloyarskiy,63.7119,66.6722,56.41,62,99,7.25,RU,1684893875
449,akureyri,65.6835,-18.0878,40.93,65,100,18.41,IS,1684893875
450,pandan,14.0453,124.1694,87.89,64,3,0.18,PH,1684893875
451,dulovo,43.8167,27.15,56.55,89,8,2.98,BG,1684893875
452,anzio,41.4853,12.6179,65.01,83,0,3.36,IT,1684893876
453,la'ie,21.6477,-157.9253,84.16,71,1,8.01,US,1684893876
454,mungwi,-10.1732,31.3694,58.86,96,17,2.82,ZM,1684893877
455,bonthe,7.5264,-12.505,76.68,89,92,4.14,SL,1684893877
456,oelwein,42.6733,-91.9135,72.73,64,2,5.37,US,1684893877
457,selfoss,63.9331,-20.9971,40.84,67,61,34.14,IS,1684893878
458,hasparren,43.3838,-1.305,63.07,100,100,9.22,FR,1684893878
459,severobaykal'sk,55.65,109.3167,35.38,98,100,2.57,RU,1684893878
460,chinu,9.1057,-75.3981,76.37,92,100,1.03,CO,1684893878
461,kailua-kona,19.6406,-155.9956,82.27,81,75,10.36,US,1684893879
462,olyokminsk,60.3736,120.4264,57.51,29,98,3.04,RU,1684893879
463,basna,21.2833,82.8167,94.12,28,54,13.82,IN,1684893879
464,suva,-18.1416,178.4415,78.28,78,75,8.05,FJ,1684893879
465,tofol,5.3248,163.0078,82.65,79,86,14.25,FM,1684893880
466,peace river,56.2501,-117.286,48.51,100,100,12.66,CA,1684893717
467,selizharovo,56.8519,33.4487,54.5,97,100,4.09,RU,1684893880
468,brasilia,-15.7797,-47.9297,63.52,68,0,6.91,BR,1684893639
469,khash,28.2211,61.2158,74.14,30,21,2.98,IR,1684893880
470,ringkobing,56.0901,8.244,48.02,92,90,11.01,DK,1684893880
471,pankrushikha,53.8319,80.3406,60.53,47,12,8.88,RU,1684893881
472,kiffa,16.6166,-11.4045,90.37,20,68,10.74,MR,1684893881
473,lockwood,45.8191,-108.4149,70.41,60,40,18.41,US,1684893881
474,kedougou,12.5579,-12.1743,87.21,48,97,4.72,SN,1684893881
475,san pedro pochutla,15.7333,-96.4667,83.71,71,14,5.68,MX,1684893881
476,villa regina,-39.1,-67.0667,48.97,25,0,5.84,AR,1684893881
477,el bauga,18.262,33.9081,83.7,46,2,5.93,SD,1684893881
478,tabou,4.423,-7.3528,80.51,84,63,5.17,CI,1684893882
479,borgarnes,64.5383,-21.9206,42.85,73,100,28.92,IS,1684893882
480,vinton,37.281,-79.897,63.07,81,93,1.01,US,1684893882
481,al muharraq,26.2572,50.6119,88.92,47,0,3.44,BH,1684893882
482,ambon,-3.6954,128.1814,87.94,66,40,6.91,ID,1684893882
483,thanh hoa,19.8,105.7667,85.78,76,100,4.97,VN,1684893882
484,lionel town,17.8101,-77.2406,82.29,84,5,1.05,JM,1684893882
485,lijiang,26.8688,100.2207,67.75,52,75,3.71,CN,1684893883
486,mugia,43.1041,-9.2179,63.16,87,12,23.4,ES,1684893883
487,pangoa,-12.1167,-73.0,69.04,99,100,1.88,PE,1684893883
488,sao manuel,-22.7311,-48.5706,56.79,80,0,4.05,BR,1684893609
489,carutapera,-1.195,-46.02,76.46,91,81,4.74,BR,1684893883
490,gadzhiyevo,69.2551,33.3362,48.56,81,72,5.06,RU,1684893883
491,al bardiyah,31.7561,25.0865,64.8,84,27,3.31,LY,1684893883
492,dedovichi,57.5517,29.9502,50.41,84,29,3.65,RU,1684893884
493,lebork,54.5392,17.7501,60.53,94,100,7.61,PL,1684893884
494,al kharijah,25.4514,30.5464,80.71,15,0,7.52,EG,1684893884
495,dover,39.1582,-75.5244,57.09,68,0,9.22,US,1684893884
496,minas de marcona,-15.2119,-75.1103,58.51,85,31,9.48,PE,1684893302
497,lashio,22.9333,97.75,81.12,46,39,1.86,MM,1684893885
498,trittau,53.6167,10.4,50.0,84,100,3.0,DE,1684893885
499,dauphin,51.1494,-100.0502,53.74,50,75,14.97,CA,1684893885
500,yigo village,13.5361,144.8886,79.92,93,100,57.53,GU,1684893885
501,bikenibeu village,1.3673,173.1241,87.76,70,75,5.75,KI,1684893303
502,aitape,-3.1374,142.3475,85.59,66,98,2.42,PG,1684893885
503,cunen,15.3375,-91.0269,65.8,95,69,3.09,GT,1684893885
504,gobabis,-22.45,18.9667,60.48,29,0,8.1,NA,1684893886
505,floro,61.5996,5.0328,48.96,93,100,21.85,NO,1684893886
506,timimoun,29.2639,0.231,70.18,17,0,4.61,DZ,1684893886
507,machico,32.7,-16.7667,66.83,80,40,6.91,PT,1684893886
508,sona,45.4388,10.8255,65.79,81,0,2.3,IT,1684893886
509,monrovia,6.3005,-10.7969,76.77,83,100,4.85,LR,1684893886
510,mwanza,-2.5167,32.9,69.85,88,40,0.0,TZ,1684893887
511,vilyuysk,63.7553,121.6247,53.31,28,90,9.35,RU,1684893288
512,betio village,1.358,172.9211,86.04,87,100,4.59,KI,1684893887
513,champerico,14.3,-91.9167,84.69,71,48,2.3,GT,1684893303
514,kudahuvadhoo,2.6708,72.8944,82.87,75,12,6.91,MV,1684893887
515,fuglafjordur,62.244,-6.814,46.87,77,9,32.77,FO,1684893887
516,constantia,44.1833,28.65,56.08,84,69,6.2,RO,1684893887
517,nyurba,63.2842,118.3319,53.51,33,100,7.31,RU,1684893888
518,sitangkai,4.6628,119.3928,84.29,70,81,6.46,PH,1684893888
519,san andres,12.5847,-81.7006,82.42,78,20,5.75,CO,1684893888
520,conde,-7.2597,-34.9075,76.46,100,40,4.61,BR,1684893888
521,burgersdorp,-30.9977,26.3286,43.66,51,8,4.76,ZA,1684893888
522,quelimane,-17.8786,36.8883,68.94,92,48,0.96,MZ,1684893889
523,tocache,-8.1842,-76.5125,71.31,99,100,0.96,PE,1684893889
524,flying fish cove,-10.4217,105.6791,82.08,78,75,10.36,CX,1684893296
525,at taj,24.2049,23.2857,75.42,21,6,11.32,LY,1684893889
526,yarmouth,41.7057,-70.2286,51.96,83,0,3.44,US,1684893889
527,olovyannaya,50.95,115.5667,61.3,29,4,14.14,RU,1684893889
528,viedma,-40.8135,-62.9967,56.03,81,100,6.85,AR,1684893889
529,sokoni,-6.4333,39.55,79.9,77,99,10.8,TZ,1684893890
530,changzhi,35.2089,111.7386,67.28,54,0,6.49,CN,1684893890
531,karukh,34.4811,62.5863,69.91,33,0,8.01,AF,1684893890
532,morteros,-30.7116,-61.9986,70.03,86,97,11.52,AR,1684893664
533,san pedro del parana,-26.8333,-56.2,68.49,72,0,7.14,PY,1684893890
534,okhotsk,59.3833,143.3,44.98,54,0,7.07,RU,1684893890
535,mil'kovo,55.6078,37.7956,59.14,98,100,3.71,RU,1684893890
536,praia,14.9215,-23.5087,72.14,78,40,12.66,CV,1684893808
537,taroa,8.7058,171.2275,82.15,81,100,17.58,MH,1684893891
538,santa luzia,-19.7697,-43.8514,63.68,75,0,9.22,BR,1684893891
539,srivardhan,18.0333,73.0167,83.57,73,5,5.82,IN,1684893891
540,lompoc,34.6391,-120.4579,61.79,82,100,5.75,US,1684893891
541,greymouth,-42.4667,171.2,57.27,66,17,2.37,NZ,1684893891
542,beledweyne,4.7358,45.2036,78.4,77,96,14.27,SO,1684893891
543,vuktyl,63.8567,57.3094,56.53,71,68,4.72,RU,1684893891
544,kakonko,-3.2828,30.9642,62.62,92,25,1.77,TZ,1684893892
545,deli tua,3.5078,98.6839,80.31,94,40,5.01,ID,1684893892
546,juneau,58.3019,-134.4197,60.8,100,40,8.05,US,1684893892
547,kyzyl-mazhalyk,51.1333,90.6,56.17,42,26,5.14,RU,1684893892
548,bei'an,24.5399,109.533,71.26,83,96,4.32,CN,1684893892
549,aburi,5.8472,-0.1775,78.51,91,92,2.37,GH,1684893892
550,bandon,51.7469,-8.7425,49.59,96,100,6.38,IE,1684893901
551,az zulfi,26.2995,44.8154,83.05,28,100,12.17,SA,1684893901
552,kovalam,8.3667,76.9967,84.29,79,20,2.3,IN,1684893901
553,kuanda,56.3161,116.0806,53.94,33,11,3.31,RU,1684893901
554,berdigestyakh,62.0989,126.6992,51.94,28,62,4.09,RU,1684893904
555,pontotoc,34.2479,-88.9987,67.6,86,50,6.78,US,1684893905
556,fish town,5.1964,-7.8756,73.09,98,88,2.21,LR,1684893906
557,turaif,31.6725,38.6637,68.25,42,0,16.11,SA,1684893906
558,muisne,0.6,-80.0333,78.49,82,93,1.34,EC,1684893907
559,narvik,68.4384,17.4272,42.39,95,95,4.43,NO,1684893908
560,san antonio,29.4241,-98.4936,82.92,65,75,11.5,US,1684893714
561,cidreira,-30.1811,-50.2056,68.32,89,10,10.33,BR,1684893733
562,vila do maio,15.1333,-23.2167,72.39,80,83,13.96,CV,1684893909
563,wakkanai,45.4094,141.6739,57.18,62,20,8.05,JP,1684893909
564,guasdualito,7.2424,-70.7324,80.6,89,40,1.14,VE,1684893910
565,oltinko'l,40.8011,72.1634,74.61,37,8,7.47,UZ,1684893911
566,mukalla,14.5425,49.1242,82.85,70,9,4.94,YE,1684893911
567,alo,7.4178,6.7371,77.56,89,100,3.6,NG,1684893912
568,sola,-13.8833,167.55,80.26,79,75,24.16,VU,1684893912
569,olinda,-8.0089,-34.8553,78.53,89,75,9.22,BR,1684893913
570,tual,-5.6667,132.75,81.86,79,55,24.25,ID,1684893913
571,mejit,10.2753,170.8646,81.99,80,100,16.55,MH,1684893914
572,sitia,35.2,26.0986,63.99,84,8,8.7,GR,1684893914
573,kolda,12.8833,-14.95,83.21,47,100,4.0,SN,1684893914
574,puerto aysen,-45.4,-72.7,39.29,100,100,3.31,CL,1684893914
575,acarau,-2.8856,-40.12,78.15,87,19,10.49,BR,1684893915
576,coihueco,-36.6167,-71.8333,49.95,94,78,6.35,CL,1684893916
577,"laikit, laikit ii (dimembe)",1.4792,124.9735,86.85,58,20,4.61,ID,1684893916
578,kafin hausa,12.2375,9.908,90.48,39,89,7.36,NG,1684893917
579,misratah,32.3754,15.0925,65.62,85,0,13.31,LY,1684893924
580,price,39.5994,-110.8107,66.11,59,40,6.91,US,1684893925
581,tokar,18.4254,37.729,84.18,76,2,9.15,SD,1684893925
582,kolonia,50.9333,6.95,46.94,80,0,2.3,DE,1684893723
583,fisterra,42.9049,-9.2629,63.01,81,18,18.92,ES,1684893925
584,necochea,-38.5473,-58.7368,61.47,89,100,8.21,AR,1684893738
585,mogadishu,2.0371,45.3438,80.38,81,100,12.35,SO,1684893926
586,poronaysk,49.2167,143.1167,50.0,70,4,13.0,RU,1684893926
587,ndele,8.4109,20.6473,74.39,73,6,6.02,CF,1684893927
588,bardai,11.65,7.2333,80.19,63,32,10.63,NG,1684893927
589,boysun,38.2061,67.1986,68.09,44,0,5.39,UZ,1684893677
590,bel ombre,-4.6167,55.4167,80.44,74,20,6.91,SC,1684893928
591,navolato,24.7672,-107.6944,87.98,38,80,8.28,MX,1684893928
592,kavaratti,10.5669,72.642,84.29,71,23,4.18,IN,1684893929
593,caleta olivia,-46.4393,-67.5281,47.07,50,2,9.44,AR,1684893702
594,mount pearl,47.5166,-52.7813,36.14,95,75,12.66,CA,1684893819
595,zabid,14.1951,43.3152,86.77,66,69,5.46,YE,1684893940
596,mariental,-24.6333,17.9667,61.86,34,1,3.67,NA,1684893940
597,tongren,27.7172,109.1853,71.24,73,63,1.77,CN,1684893940
